City_ID,City,Lat,Lng,Max Temp,Humidity,Cloudiness,Wind Speed,Country,Date
0,whitehorse,60.7161,-135.0538,67.1,51,75,9.22,CA,1691697438
1,atafu village,-8.5421,-172.5159,82.96,70,23,12.44,TK,1691697727
2,aasiaat,68.7098,-52.8699,37.71,89,100,11.23,GL,1691697727
3,uacu cungo,-11.3634,15.1208,67.55,57,1,3.18,AO,1691697728
4,ust-nera,64.5667,143.2,63.1,59,9,1.34,RU,1691697728
5,broome,42.2506,-75.833,71.19,90,100,10.36,US,1691697728
6,kingscliff,-28.2667,153.5667,55.2,82,0,4.61,AU,1691697729
7,morehead city,34.7229,-76.726,82.45,86,0,25.32,US,1691697512
8,longyearbyen,78.2186,15.6401,49.84,81,100,3.44,SJ,1691697729
9,hermosillo,29.0667,-110.9667,101.28,51,100,3.0,MX,1691697730
10,hawaiian paradise park,19.5933,-154.9731,77.04,93,100,1.99,US,1691697523
11,qaqortoq,60.7167,-46.0333,47.07,72,79,4.61,GL,1691697730
12,noshiro,40.2039,140.0242,74.16,80,0,6.87,JP,1691697731
13,west fargo,46.875,-96.9004,69.98,69,40,9.22,US,1691697609
14,kabalo,-6.05,26.9167,82.08,33,16,4.85,CD,1691697731
15,yangjiang,21.85,111.9667,79.03,90,100,1.43,CN,1691697632
16,xining,36.6167,101.7667,63.14,92,95,2.62,CN,1691697732
17,sao felix do xingu,-6.6447,-51.995,92.23,35,39,8.37,BR,1691697732
18,ceerigaabo,10.6162,47.368,69.64,53,66,17.29,SO,1691697733
19,kadnikov,59.5022,40.338,66.9,88,100,3.8,RU,1691697733
20,grytviken,-54.2811,-36.5092,28.36,97,94,7.83,GS,1691697733
21,port alfred,-33.5906,26.891,68.04,62,0,10.96,ZA,1691697734
22,bridgewater,44.3835,-64.5155,78.42,59,77,19.57,CA,1691697686
23,kruisfontein,-34.0033,24.7314,66.99,27,3,10.47,ZA,1691697734
24,waitangi,-43.9535,-176.5597,51.82,84,66,12.75,NZ,1691697734
25,ilulissat,69.2167,-51.1,46.42,76,75,4.61,GL,1691697735
26,tezu,27.9167,96.1667,76.8,97,100,2.82,IN,1691697735
27,ushuaia,-54.8,-68.3,37.06,87,100,10.36,AR,1691697735
28,rongelap,11.1635,166.8941,82.63,75,38,10.6,MH,1691697735
29,nar'yan-mar,67.6713,53.087,51.91,79,6,6.44,RU,1691697736
30,stettler,52.3168,-112.7186,68.76,64,85,16.11,CA,1691697736
31,port-aux-francais,-49.35,70.2167,38.97,93,100,35.01,TF,1691697736
32,adamstown,-25.066,-130.1015,64.62,63,23,25.17,PN,1691697736
33,albany,42.6001,-73.9662,77.41,95,100,0.38,US,1691697145
34,edinburgh of the seven seas,-37.0676,-12.3116,53.76,65,24,25.41,SH,1691697737
35,akureyri,65.6835,-18.0878,48.13,76,40,11.5,IS,1691697737
36,arraial do cabo,-22.9661,-42.0278,76.96,78,0,19.57,BR,1691697737
37,west island,-12.1568,96.8225,76.98,88,75,13.8,CC,1691697738
38,gadzhiyevo,69.2551,33.3362,64.44,68,0,11.05,RU,1691697738
39,talnakh,69.4865,88.3972,54.21,66,86,16.62,RU,1691697739
40,fort st. john,56.2499,-120.8529,58.89,88,75,9.22,CA,1691697670
41,pergamino,-33.89,-60.5736,63.82,80,100,5.86,AR,1691697744
42,ayr,55.4627,-4.6339,71.31,78,75,8.05,GB,1691697745
43,anadyr,64.75,177.4833,48.7,81,75,6.71,RU,1691697679
44,lethem,3.3803,-59.7968,86.11,63,79,6.06,GY,1691697745
45,thunder bay,48.4001,-89.3168,67.98,52,75,10.36,CA,1691697583
46,baicheng,45.6167,122.8167,62.42,96,78,8.93,CN,1691697746
47,murray bridge,-35.1167,139.2667,49.33,87,98,4.29,AU,1691697746
48,howard springs,-12.497,131.047,71.51,70,95,6.85,AU,1691697746
49,bilibino,68.0546,166.4372,49.1,81,100,4.09,RU,1691697746
50,bredasdorp,-34.5322,20.0403,56.08,72,0,2.3,ZA,1691697746
51,punta arenas,-53.15,-70.9167,38.88,72,100,15.35,CL,1691697746
52,stanley,54.868,-1.6985,69.71,82,0,3.44,GB,1691697747
53,afaahiti,-17.75,-149.2833,78.67,66,61,17.49,PF,1691697747
54,alice springs,-23.7,133.8833,42.35,65,0,0.0,AU,1691697747
55,ribeira grande,38.5167,-28.7,77.4,69,40,7.0,PT,1691697748
56,labrador city,52.9463,-66.9114,62.51,72,75,8.05,CA,1691697610
57,bethel,41.3712,-73.414,75.51,86,100,3.44,US,1691697510
58,margaret river,-33.95,115.0667,54.48,74,96,5.19,AU,1691697748
59,vila velha,-20.3297,-40.2925,75.15,83,75,12.66,BR,1691697640
60,yellowknife,62.456,-114.3525,68.52,49,100,4.61,CA,1691697720
61,crnomelj,45.5711,15.1889,62.6,85,7,1.34,SI,1691697749
62,iqaluit,63.7506,-68.5145,46.13,87,20,9.22,CA,1691697749
63,kas,36.2018,29.6377,78.3,77,0,7.25,TR,1691697749
64,papatowai,-46.5619,169.4708,36.66,85,100,6.24,NZ,1691697750
65,puerto natales,-51.7236,-72.4875,39.58,76,100,7.36,CL,1691697750
66,la passe,45.5549,-0.8967,71.83,91,21,8.84,FR,1691697751
67,kodiak,57.79,-152.4072,53.78,87,100,4.52,US,1691697751
68,maitum,6.0392,124.4986,78.51,79,100,3.78,PH,1691697751
69,guerrero negro,27.9769,-114.0611,80.22,61,6,16.37,MX,1691697752
70,hithadhoo,-0.6,73.0833,81.63,79,88,10.22,MV,1691697752
71,constantia,44.1833,28.65,68.7,60,100,5.97,RO,1691697753
72,blackmans bay,-43.0167,147.3167,47.7,80,100,7.05,AU,1691697753
73,belozersk,60.0326,37.7957,63.07,90,6,5.84,RU,1691697753
74,invercargill,-46.4,168.35,34.02,91,100,4.0,NZ,1691697646
75,nueva gerona,21.8833,-82.8,90.86,60,40,11.59,CU,1691697754
76,konduga,11.6558,13.4213,76.1,77,100,8.72,NG,1691697754
77,merizo village,13.2658,144.6691,79.99,94,100,22.41,GU,1691697754
78,portland,45.5234,-122.6762,81.21,46,75,5.75,US,1691697567
79,saipan,15.1355,145.701,81.3,100,75,14.97,MP,1691697754
80,fale old settlement,-9.3852,-171.2468,82.38,74,91,10.29,TK,1691697754
81,conceicao do mato dentro,-19.0372,-43.425,75.34,51,7,5.37,BR,1691697755
82,laascaanood,8.4774,47.3597,81.1,43,59,25.5,SO,1691697755
83,egilsstadir,65.2653,-14.3948,49.91,76,40,11.5,IS,1691697755
84,trincomalee,8.5711,81.2335,80.1,75,62,9.53,LK,1691697477
85,fuyu,45.1833,124.8167,64.71,99,15,8.79,CN,1691697756
86,pyt-yakh,60.7499,72.8582,51.71,81,100,11.36,RU,1691697756
87,uturoa,-16.7333,-151.4333,76.91,67,63,16.82,PF,1691697756
88,nouadhibou,20.931,-17.0347,71.58,88,25,20.71,MR,1691697756
89,at taj,24.2049,23.2857,95.23,23,27,17.09,LY,1691697756
90,nema,57.5067,50.5011,64.85,75,0,4.68,RU,1691697756
91,kristiansund,63.1115,7.732,52.45,87,100,6.91,NO,1691697756
92,tecax,20.2,-89.2833,103.44,29,13,6.53,MX,1691697757
93,tay ninh,11.3,106.1,82.0,75,100,9.13,VN,1691697757
94,tiksi,71.6872,128.8694,60.98,49,2,4.45,RU,1691697757
95,caleta de carquin,-11.0925,-77.6267,69.64,73,11,14.23,PE,1691697758
96,utrik,11.2278,169.8474,81.93,70,15,11.99,MH,1691697758
97,vorgashor,67.5833,63.95,43.45,93,44,7.76,RU,1691697758
98,aykhal,66.0,111.5,59.25,86,100,4.83,RU,1691697758
99,dickinson,29.4608,-95.0513,106.09,58,0,5.01,US,1691697623
100,lonar,19.9833,76.5333,75.42,79,97,4.88,IN,1691697758
101,alexandria,31.2156,29.9553,79.34,65,0,11.34,EG,1691697758
102,betio village,1.358,172.9211,80.64,73,99,4.25,KI,1691697759
103,badger,64.8,-147.5333,70.12,64,72,1.81,US,1691697759
104,vilyuchinsk,52.9306,158.4028,48.47,79,48,3.69,RU,1691697759
105,zmeinogorsk,51.1567,82.195,61.34,92,100,6.38,RU,1691697759
106,zabol,32.25,67.25,75.34,19,1,9.42,AF,1691697759
107,jamestown,42.097,-79.2353,78.03,57,75,14.97,US,1691697639
108,sitka,57.0531,-135.33,59.85,87,100,2.84,US,1691697760
109,bouca,6.5105,18.2733,71.96,94,100,2.82,CF,1691697760
110,cooma,-36.2333,149.1333,29.88,93,0,1.21,AU,1691697760
111,konarka,19.9,86.1167,82.8,75,93,10.29,IN,1691697761
112,auki,-8.7676,160.7034,75.9,91,98,11.14,SB,1691697761
113,wailua homesteads,22.0669,-159.378,81.03,82,17,3.0,US,1691697761
114,raghunathpur,23.55,86.6667,84.02,70,100,4.63,IN,1691697761
115,baotou,40.6522,109.8222,76.87,64,100,2.57,CN,1691697610
116,saint-philippe,-21.3585,55.7679,67.59,82,21,3.38,RE,1691697762
117,odda,60.0691,6.5457,54.77,96,100,1.99,NO,1691697762
118,avarua,-21.2078,-159.775,77.05,78,75,16.11,CK,1691697762
119,codrington,-38.2667,141.9667,49.42,82,100,9.53,AU,1691697762
120,tabou,4.423,-7.3528,75.81,84,100,9.04,CI,1691697762
121,college,64.8569,-147.8028,70.2,89,100,0.0,US,1691697612
122,coahuayana de hidalgo,18.7,-103.6583,92.39,55,94,6.73,MX,1691697763
123,isafjordur,66.0755,-23.124,46.65,75,100,9.55,IS,1691697763
124,kill devil hills,36.0307,-75.676,86.0,74,100,16.11,US,1691697763
125,porto novo,6.4965,2.6036,78.62,85,29,6.93,BJ,1691697582
126,al ghayzah,16.2079,52.176,78.46,89,100,9.8,YE,1691697763
127,pokhara,28.2333,83.9833,72.75,92,100,2.86,NP,1691697764
128,aitape,-3.1374,142.3475,78.69,87,99,7.78,PG,1691697764
129,mount isa,-20.7333,139.5,46.17,93,6,4.61,AU,1691697764
130,taber,49.8167,-112.1518,80.44,27,21,12.66,CA,1691697607
131,port elizabeth,-33.918,25.5701,59.29,94,0,2.3,ZA,1691697616
132,hermanus,-34.4187,19.2345,60.75,62,0,3.0,ZA,1691697764
133,geraldton,-28.7667,114.6,55.81,94,75,4.61,AU,1691697765
134,hadibu,12.65,54.0333,78.06,81,47,14.79,YE,1691697765
135,hamilton,39.1834,-84.5333,82.74,66,40,13.8,US,1691697765
136,al jawf,29.5,38.75,89.62,23,6,9.24,SA,1691697765
137,sandnessjoen,66.0217,12.6316,64.51,59,40,4.61,NO,1691697765
138,kiunga,-6.1219,141.2906,71.22,89,95,3.71,PG,1691697766
139,hamina,60.5697,27.1979,60.08,82,45,3.0,FI,1691697766
140,tshabong,-26.05,22.45,56.05,34,0,7.61,BW,1691697766
141,nova vicosa,-17.8919,-39.3719,74.64,68,65,9.13,BR,1691697766
142,rojhan,28.6868,69.9534,93.33,47,100,17.56,PK,1691697766
143,kapa'a,22.0752,-159.319,82.38,82,12,3.0,US,1691697767
144,east london,-33.0153,27.9116,66.25,72,0,15.21,ZA,1691697767
145,pandan,14.0453,124.1694,80.38,85,100,6.31,PH,1691697767
146,el calafate,-50.3408,-72.2768,37.81,97,100,2.01,AR,1691697767
147,ebon,4.582,168.6964,83.39,72,30,8.3,MH,1691697767
148,mudanya,40.3753,28.8822,73.98,78,96,3.11,TR,1691697768
149,brookings,44.3114,-96.7984,84.54,75,100,3.0,US,1691697684
150,christchurch,-43.5333,172.6333,35.47,87,99,2.3,NZ,1691697592
151,satipo,-11.2522,-74.6386,92.03,36,44,0.85,PE,1691697768
152,cabedelo,-6.9811,-34.8339,81.27,80,7,15.99,BR,1691697768
153,hugo,45.16,-92.9933,79.79,58,100,5.75,US,1691697768
154,tromso,69.6496,18.957,57.22,88,75,5.75,NO,1691697768
155,santa rosalia,27.3167,-112.2833,90.37,52,0,8.23,MX,1691697769
156,tolga,34.7222,5.3785,97.61,19,0,6.71,DZ,1691697769
157,kuanda,56.3161,116.0806,61.09,96,100,3.89,RU,1691697769
158,puerto ayora,-0.7393,-90.3518,87.76,90,51,7.0,EC,1691697769
159,berezovyy,51.6667,135.7,55.09,88,16,2.1,RU,1691697770
160,molteno,-31.3968,26.3625,49.98,53,0,5.77,ZA,1691697770
161,urangan,-25.3,152.9,61.39,73,0,5.59,AU,1691697770
162,nadym,65.5333,72.5167,43.74,82,0,20.31,RU,1691697770
163,robore,-18.3333,-59.75,100.35,19,0,12.75,BO,1691697770
164,itamaraca,-7.7478,-34.8256,78.85,74,13,11.99,BR,1691697771
165,nova sintra,14.8667,-24.7167,73.08,75,23,17.96,CV,1691697771
166,tofol,5.3248,163.0078,83.25,72,89,5.82,FM,1691697772
167,palmer,42.1584,-72.3287,74.89,91,100,9.91,US,1691697717
168,iskateley,67.6803,53.1512,51.78,78,6,6.38,RU,1691697772
169,new norfolk,-42.7826,147.0587,48.88,93,100,3.38,AU,1691697772
170,duiwelskloof,-23.6934,30.14,56.62,55,38,2.06,ZA,1691697772
171,guanica,17.9716,-66.908,91.29,86,98,16.84,PR,1691697773
172,forster,-32.1667,152.5167,50.58,68,0,8.3,AU,1691697773
173,laguna,38.421,-121.4238,91.18,44,0,6.91,US,1691697773
174,loches,47.1333,1.0,80.94,58,36,6.17,FR,1691697773
175,waddan,29.1614,16.139,84.29,35,0,11.16,LY,1691697773
176,georgetown,5.4112,100.3354,79.95,91,20,2.3,MY,1691697619
177,saldanha,-33.0117,17.9442,59.05,75,0,6.42,ZA,1691697774
178,olonkinbyen,70.9221,-8.7187,44.51,97,100,11.61,SJ,1691697774
179,bentiu,9.2333,29.8333,75.78,80,85,4.25,SS,1691697774
180,kismayo,-0.3582,42.5454,75.78,82,43,15.48,SO,1691697774
181,carnarvon,-24.8667,113.6333,64.92,84,15,2.93,AU,1691697774
182,petropavlovsk-kamchatsky,53.0452,158.6483,46.99,93,20,8.95,RU,1691697775
183,mitu,1.1983,-70.1733,83.75,78,66,3.53,CO,1691697775
184,aioun,16.6614,-9.6149,99.59,24,62,8.68,MR,1691697775
185,magangue,9.242,-74.7547,92.35,56,100,5.12,CO,1691697775
186,bazar-korgon,41.0376,72.7459,82.53,29,85,4.56,KG,1691697775
187,bathsheba,13.2167,-59.5167,88.41,70,40,18.41,BB,1691697776
188,vadso,70.0744,29.7487,72.48,82,0,4.61,NO,1691697776
189,monywa,22.1167,95.1333,77.7,90,100,5.26,MM,1691697776
190,igarka,67.4667,86.5833,52.09,93,100,13.56,RU,1691697776
191,lompoc,34.6391,-120.4579,79.02,84,100,8.99,US,1691697776
192,lebu,-37.6167,-73.65,50.88,80,54,14.7,CL,1691697771
193,fada,9.5667,8.3,67.5,97,100,0.92,NG,1691697777
194,vorkuta,67.5,64.0,44.01,93,42,7.72,RU,1691697777
195,arno,60.1167,18.6333,55.78,88,100,11.34,SE,1691697777
196,berber,18.0216,33.983,99.59,30,98,10.49,SD,1691697777
197,al mijlad,11.0333,27.7333,84.52,57,37,4.85,SD,1691697778
198,neiafu,-18.65,-173.9833,77.68,83,75,5.75,TO,1691697778
199,prado,-17.3411,-39.2208,73.94,72,58,7.16,BR,1691697778
200,sequim,48.0795,-123.1018,70.11,71,74,1.99,US,1691697778
201,walvis bay,-22.9575,14.5053,57.09,94,49,5.75,NA,1691697778
202,tolanaro,-25.0319,46.9987,66.27,77,75,6.91,MG,1691697779
203,bandon,51.7469,-8.7425,62.19,94,74,11.59,IE,1691697779
204,westport,41.1415,-73.3579,76.32,87,100,5.99,US,1691697608
205,lypova dolyna,50.5643,33.7979,66.27,67,100,11.79,UA,1691697779
206,keelung,25.1283,121.7419,82.06,89,95,2.08,TW,1691697713
207,enewetak,11.3474,162.3373,82.96,77,35,10.54,MH,1691697779
208,santiago del torno,-17.9833,-63.3833,88.56,34,0,13.38,BO,1691697780
209,mejit,10.2753,170.8646,81.54,72,77,9.44,MH,1691697780
210,byron bay,-28.65,153.6167,52.72,73,0,5.48,AU,1691697590
211,maumere,-8.6199,122.2111,74.44,77,25,3.42,ID,1691697780
212,beroroha,-21.6667,45.1667,68.58,62,0,7.31,MG,1691697780
213,shubarshi,48.5872,57.1869,74.52,36,0,6.13,KZ,1691697781
214,cervantes,-39.05,-67.3833,68.79,24,9,28.9,AR,1691697781
215,victoria point,-27.5833,153.3,55.9,78,0,5.21,AU,1691697781
216,rakops,-21.0167,24.3333,61.38,49,0,16.33,BW,1691697781
217,wewak,-3.5534,143.6268,77.43,89,93,8.1,PG,1691697782
218,kingston,17.997,-76.7936,88.75,74,40,18.41,JM,1691697621
219,karratha,-20.7377,116.8463,68.47,56,0,6.44,AU,1691697782
220,leava,-14.3,-178.1667,82.04,77,100,12.41,WF,1691697782
221,fisterra,42.9049,-9.2629,72.75,92,44,6.96,ES,1691697782
222,sao paulo de olivenca,-3.3783,-68.8725,86.14,62,80,2.19,BR,1691697783
223,binhe,32.6883,112.8275,76.1,85,51,2.42,CN,1691697786
224,ijui,-28.3878,-53.9147,71.15,87,84,8.16,BR,1691697788
225,el bauga,18.262,33.9081,99.9,25,79,9.89,SD,1691697789
226,saudarkrokur,65.7461,-19.6394,45.34,87,100,11.14,IS,1691697792
227,cam ranh,11.9214,109.1591,84.16,84,20,3.44,VN,1691697793
228,tres lagoas,-20.7511,-51.6783,96.46,15,0,9.55,BR,1691697793
229,susuman,62.7833,148.1667,54.23,58,6,1.61,RU,1691697794
230,kone,-21.0595,164.8658,56.55,71,0,5.01,NC,1691697794
231,bengkulu,-3.8004,102.2655,74.12,93,47,5.03,ID,1691697794
232,thompson,55.7435,-97.8558,68.16,45,75,3.44,CA,1691697795
233,santa cruz,-17.8,-63.1667,89.65,45,20,28.77,BO,1691697672
234,mankoeng,-23.9,29.8167,51.82,65,0,4.12,ZA,1691697795
235,road town,18.4167,-64.6167,89.64,70,40,10.36,VG,1691697796
236,muslyumovo,55.3033,53.1947,66.38,58,0,4.27,RU,1691697796
237,revda,56.801,59.9303,50.43,91,7,3.74,RU,1691697796
238,peterhead,57.5058,-1.7981,64.8,95,3,13.13,GB,1691697796
239,buka,40.8108,69.1986,77.49,28,0,1.81,UZ,1691697797
240,crane,31.3974,-102.3501,106.23,13,0,5.23,US,1691697797
241,pisco,-13.7,-76.2167,71.65,64,20,17.27,PE,1691697797
242,ancud,-41.8697,-73.8203,48.04,68,100,25.95,CL,1691697658
243,khromtau,50.2503,58.4347,68.74,46,0,3.76,KZ,1691697798
244,kerikeri,-35.2268,173.9474,41.92,92,50,4.54,NZ,1691697798
245,mandalgovi,45.7625,106.2708,61.79,77,5,12.68,MN,1691697798
246,kiboga,0.9161,31.7742,64.09,80,6,1.79,UG,1691697799
247,necochea,-38.5473,-58.7368,61.02,80,100,12.39,AR,1691697626
248,nemuro,43.3236,145.575,66.04,99,100,14.61,JP,1691697799
249,holualoa,19.6228,-155.9522,80.78,75,0,9.22,US,1691697799
250,klaksvik,62.2266,-6.589,54.52,88,84,13.96,FO,1691697800
251,shevchenko,48.5,35.0,68.36,92,100,6.04,UA,1691697800
252,gizo,-8.103,156.8419,78.53,84,100,25.95,SB,1691697800
253,malango,-2.9627,119.9001,66.6,99,100,0.27,ID,1691697800
254,naze,28.3667,129.4833,76.12,88,100,4.29,JP,1691697800
255,chonchi,-42.6128,-73.8092,49.12,84,100,8.95,CL,1691697801
256,puerto deseado,-47.7503,-65.8938,54.5,52,21,15.37,AR,1691697801
257,pagar alam,-4.0167,103.2667,66.34,93,21,3.04,ID,1691697801
258,tafuna,-14.3358,-170.72,84.15,84,40,9.22,AS,1691697802
259,cananeia,-25.0147,-47.9267,69.75,89,41,5.14,BR,1691697802
260,qamdo,31.1667,97.2333,45.9,90,100,1.12,CN,1691697802
261,bamboo flat,11.7,92.7167,82.49,83,75,5.75,IN,1691697802
262,sterling,39.0062,-77.4286,82.53,73,100,10.0,US,1691697580
263,ivdel',60.6911,60.4206,51.51,86,2,4.32,RU,1691697803
264,boa viagem,-5.1275,-39.7322,90.7,22,99,6.82,BR,1691697777
265,turpan,42.9333,89.1667,95.43,19,0,3.04,CN,1691697803
266,ulsteinvik,62.3432,5.8487,56.75,89,100,5.01,NO,1691697803
267,visakhapatnam,17.69,83.2093,81.95,66,100,2.53,IN,1691697612
268,kemin,42.7846,75.6892,68.22,50,0,2.57,KG,1691697804
269,tidjikja,18.5564,-11.4271,100.63,16,8,13.2,MR,1691697804
270,cherdyn',60.403,56.4787,53.89,77,1,2.93,RU,1691697804
271,udachny,66.4167,112.4,61.45,82,76,5.59,RU,1691697804
272,whakatane,-37.9585,176.9854,43.77,96,27,7.99,NZ,1691697805
273,tsiombe,-25.3,45.4833,62.98,73,21,9.8,MG,1691697805
274,nicoya,10.1483,-85.452,89.22,61,99,2.73,CR,1691697805
275,ola,59.5833,151.2833,54.64,74,15,2.75,RU,1691697805
276,sao vicente,-23.9631,-46.3919,86.27,59,75,4.61,BR,1691697805
277,callao,-12.0667,-77.15,70.72,73,100,13.8,PE,1691697708
278,touros,-5.1989,-35.4608,78.4,76,16,16.55,BR,1691697718
279,cannonvale,-20.2833,148.7,65.59,76,3,10.49,AU,1691697806
280,olinda,-8.0089,-34.8553,78.53,69,20,14.97,BR,1691697806
281,otofuke,42.9917,143.2003,68.61,96,100,1.16,JP,1691697807
282,katsuren-haebaru,26.3369,127.8719,80.62,94,40,2.3,JP,1691697807
283,pizhou,34.3114,117.9503,72.1,78,42,3.47,CN,1691697807
284,severo-yeniseyskiy,60.3725,93.0408,53.28,96,100,4.16,RU,1691697807
285,ballina,-28.8667,153.5667,51.78,73,0,7.52,AU,1691697807
286,sinabang,2.4803,96.3801,78.51,85,100,5.06,ID,1691697807
287,jerantut,3.936,102.3626,73.38,98,93,1.1,MY,1691697808
288,amga,60.8953,131.9608,54.68,98,1,2.64,RU,1691697808
289,ashburton,-37.8626,145.0794,52.39,81,100,5.32,AU,1691697809
290,lihue,21.9789,-159.3672,83.44,71,75,14.97,US,1691697810
291,canacona,14.9959,74.0506,80.13,88,67,3.36,IN,1691697810
292,nuuk,64.1835,-51.7216,48.81,81,75,2.3,GL,1691697810
293,maun,-19.9833,23.4167,69.76,28,0,8.05,BW,1691697811
294,las lomitas,-24.7096,-60.593,95.99,25,5,12.28,AR,1691697811
295,tazovsky,67.4667,78.7,45.27,66,1,20.65,RU,1691697811
296,bairnsdale,-37.8333,147.6167,40.05,90,9,6.26,AU,1691697812
297,parkes,-33.1333,148.1833,36.36,82,0,2.48,AU,1691697812
298,tukrah,32.5341,20.5791,78.78,64,0,14.16,LY,1691697812
299,nikel,69.4128,30.222,71.78,65,1,8.59,RU,1691697812
300,belmonte,-15.8631,-38.8828,74.62,73,41,6.22,BR,1691697813
301,lauro de freitas,-12.8944,-38.3272,80.62,65,40,11.5,BR,1691697736
302,nizhnesortymskiy,62.4397,71.7603,49.28,75,95,18.97,RU,1691697813
303,tarrafal,15.2833,-23.7667,81.39,74,16,12.39,CV,1691697813
304,wete,-5.0559,39.7294,72.93,82,4,7.23,TZ,1691697813
305,kyzyl-suu,42.3414,78.0056,65.19,54,100,5.66,KG,1691697813
306,la'ie,21.6477,-157.9253,85.96,68,51,16.98,US,1691697814
307,pekan,3.4836,103.3996,78.91,89,57,4.65,MY,1691697814
308,zuni pueblo,35.0725,-108.8506,81.3,33,11,16.26,US,1691697815
309,berdigestyakh,62.0989,126.6992,53.73,93,0,5.64,RU,1691697818
310,ushtobe,45.2514,77.9838,75.24,45,66,10.38,KZ,1691697819
311,seosan,36.7817,126.4522,73.53,92,100,10.0,KR,1691697819
312,minas de marcona,-15.2119,-75.1103,60.91,71,13,18.14,PE,1691697819
313,port hedland,-20.3167,118.5667,62.65,82,0,6.91,AU,1691697820
314,tura,25.5198,90.2201,75.06,98,100,4.56,IN,1691697820
315,burang,30.25,81.1667,53.62,83,100,4.03,CN,1691697821
316,puerto penasco,31.3167,-113.5333,87.91,66,40,23.0,MX,1691697605
317,tarfaya,27.9358,-12.9218,71.98,89,78,20.24,MA,1691697821
318,bodo,67.28,14.405,64.45,67,0,13.8,NO,1691697753
319,villa gesell,-37.2639,-56.973,60.06,81,100,11.72,AR,1691697821
320,klyuchi,52.2667,79.1667,63.01,91,97,9.6,RU,1691697821
321,manokwari,-0.8667,134.0833,77.58,79,42,3.91,ID,1691697821
322,port-vila,-17.7338,168.3219,65.8,55,20,11.5,VU,1691697822
323,melfi,40.9965,15.6514,67.5,50,59,1.66,IT,1691697822
324,tutong,4.8,114.65,78.89,90,98,4.85,BN,1691697822
325,jiwani,25.05,61.7417,80.58,85,100,9.71,PK,1691697822
326,mandera,3.9366,41.867,84.07,43,99,18.77,KE,1691697822
327,plesetsk,62.708,40.2916,64.31,91,15,3.11,RU,1691697823
328,port lincoln,-34.7333,135.8667,48.67,79,4,5.32,AU,1691697823
329,lautoka,-17.6167,177.4667,67.86,100,75,5.75,FJ,1691697823
330,tazacorte,28.629,-17.9293,77.97,65,0,17.27,ES,1691697823
331,marsh harbour,26.5412,-77.0636,86.29,67,29,1.92,BS,1691697823
332,mersing,2.4312,103.8405,75.11,94,20,5.75,MY,1691697824
333,brisas de zicatela,15.8369,-97.0419,90.12,58,40,6.91,MX,1691697824
334,cabo san lucas,22.8909,-109.9124,95.61,68,37,1.99,MX,1691697628
335,eregli,37.5133,34.0467,79.34,44,1,0.43,TR,1691697824
336,cloquet,46.7216,-92.4594,76.39,43,0,4.61,US,1691697676
337,itaiba,-8.9475,-37.4228,75.36,62,71,12.68,BR,1691697825
338,saint-pierre,-21.3393,55.4781,67.68,68,0,6.91,RE,1691697825
339,nizhniy kuranakh,58.8353,125.4869,62.42,67,92,6.13,RU,1691697825
340,douliu,23.7094,120.5433,82.76,99,96,1.99,TW,1691697687
341,happy valley-goose bay,53.3168,-60.3315,61.11,67,75,6.91,CA,1691697625
342,campbell river,50.0163,-125.2446,71.6,60,75,6.91,CA,1691697645
343,puerto aysen,-45.4,-72.7,46.44,87,100,0.0,CL,1691697755
344,beytussebap,37.5694,43.1681,74.64,27,10,3.51,TR,1691697826
345,labuan,5.2767,115.2417,79.16,88,20,0.0,MY,1691697826
346,borzya,50.3833,116.5167,61.16,88,100,4.68,RU,1691697826
347,glendive,47.1053,-104.7125,84.76,32,20,23.02,US,1691697812
348,santo antonio do ica,-3.1022,-67.9397,89.29,58,91,3.22,BR,1691697703
349,francistown,-21.17,27.5079,56.68,67,11,12.33,BW,1691697827
350,masterton,-40.9597,175.6575,39.96,96,96,3.65,NZ,1691697827
351,stephenville,32.2207,-98.2023,108.25,25,0,3.44,US,1691697827
352,cachoeira do sul,-30.0392,-52.8939,73.63,79,50,5.21,BR,1691697818
353,phan rang-thap cham,11.5667,108.9833,77.86,86,9,3.85,VN,1691697827
354,alvaraes,-3.2208,-64.8042,85.87,72,99,3.29,BR,1691697828
355,la gi,10.6667,107.7833,78.76,88,20,9.1,VN,1691697683
356,port mathurin,-19.6833,63.4167,72.84,80,36,19.37,MU,1691697828
357,lu-uk,5.9684,121.3122,78.46,86,100,3.62,PH,1691697828
358,uberaba,-19.7483,-47.9319,88.38,23,0,5.75,BR,1691697782
359,howrah,22.5892,88.3103,84.2,84,75,6.91,IN,1691697633
360,pacific grove,36.6177,-121.9166,76.64,76,0,11.5,US,1691697829
361,gypsum,39.6469,-106.9517,83.35,24,0,21.85,US,1691697648
362,sumbe,-11.2061,13.8437,68.25,88,50,6.29,AO,1691697830
363,zapala,-38.8992,-70.0544,46.36,49,2,30.15,AR,1691697830
364,saint-louis,16.3333,-15.0,91.04,41,100,18.52,SN,1691697830
365,buala,-8.145,159.5921,77.97,87,100,18.43,SB,1691697830
366,banda aceh,5.5577,95.3222,79.12,85,52,8.86,ID,1691697830
367,mukalla,14.5425,49.1242,87.3,60,100,8.66,YE,1691697600
368,mandiana,10.6333,-8.6833,74.23,93,93,6.11,GN,1691697831
369,san luis de la loma,17.2706,-100.8939,87.01,68,100,7.0,MX,1691697831
370,antsiranana,-12.2787,49.2917,72.12,79,0,11.1,MG,1691697831
371,itaituba,-4.2761,-55.9836,96.96,49,40,9.22,BR,1691697744
372,kidal,18.4411,1.4078,85.62,50,32,17.36,ML,1691697557
373,cadale,2.7603,46.3222,76.73,84,79,16.71,SO,1691697831
374,colonia,50.9333,6.95,69.96,68,0,4.61,DE,1691697666
375,paulden,34.8856,-112.4682,92.08,34,10,7.0,US,1691697659
376,nueva palmira,-33.8833,-58.4167,64.96,76,100,6.29,UY,1691697832
377,serenje,-13.2325,30.2352,55.04,51,0,6.26,ZM,1691697832
378,bel ombre,-4.6167,55.4167,78.64,78,20,3.44,SC,1691697832
379,inverloch,-38.6333,145.7167,52.0,74,100,13.0,AU,1691697833
380,kiiminki,65.1314,25.7974,58.66,10,58,5.01,FI,1691697833
381,wotho,10.1657,166.0102,82.11,75,21,8.46,MH,1691697833
382,camocim,-2.9022,-40.8411,83.5,62,84,17.85,BR,1691697831
383,yatou,37.15,122.3833,75.15,76,100,17.9,CN,1691697833
384,port douglas,-16.4833,145.4667,69.94,77,98,12.8,AU,1691697834
385,lobujya,27.95,86.8167,41.18,84,99,2.73,NP,1691697834
386,suva,-18.1416,178.4415,67.48,100,100,0.0,FJ,1691697834
387,barrouallie,13.2333,-61.2667,85.62,74,40,8.05,VC,1691697834
388,matoury,4.8483,-52.3317,87.76,66,37,12.66,GF,1691697834
389,kita,13.0349,-9.4895,76.6,90,97,3.09,ML,1691697834
390,freetown,8.484,-13.2299,77.61,86,100,11.21,SL,1691697615
391,saint-leu,-21.15,55.2833,67.06,89,5,2.73,RE,1691697835
392,queenstown,-31.8976,26.8753,54.72,48,0,4.83,ZA,1691697835
393,keffi,8.8486,7.8736,72.72,93,100,1.36,NG,1691697835
394,sao joao da barra,-21.6403,-41.0511,77.09,79,12,16.44,BR,1691697835
395,arraias,-12.9288,-46.9437,88.61,22,93,5.01,BR,1691697835
396,jiangyou,31.7667,104.7167,76.41,90,85,4.7,CN,1691697836
397,kudahuvadhoo,2.6708,72.8944,82.99,76,100,14.45,MV,1691697836
398,roses,42.262,3.1769,84.83,71,77,7.43,ES,1691697836
399,fortuna,40.5982,-124.1573,69.93,79,100,8.05,US,1691697836
400,reggane,26.7158,0.1714,101.55,10,0,11.43,DZ,1691697836
401,ciudad lazaro cardenas,17.9583,-102.2,88.66,62,84,6.85,MX,1691697836
402,roswell,34.0232,-84.3616,85.23,66,0,16.11,US,1691697836
403,baglung,28.2719,83.5898,71.49,94,100,3.13,NP,1691697837
404,lamar,33.6668,-95.5836,103.64,47,20,9.22,US,1691697837
405,lafayette,30.2335,-92.0668,100.35,51,40,13.8,US,1691697837
406,kwadukuza,-29.3282,31.2895,64.29,88,8,8.79,ZA,1691697837
407,vanimo,-2.6741,141.3028,78.17,90,98,7.31,PG,1691697838
408,pauls valley,34.7401,-97.2223,95.31,38,0,6.91,US,1691697838
409,kannur,11.8675,75.3576,77.7,89,100,8.32,IN,1691697838
410,goulburn,-34.75,149.7167,35.78,97,5,4.0,AU,1691697628
411,villa angela,-27.5738,-60.7153,90.32,33,24,8.28,AR,1691697838
412,al hadd,26.2456,50.6542,94.05,75,0,10.36,BH,1691697838
413,salaqi,40.5414,110.5108,74.57,77,97,1.95,CN,1691697838
414,sampit,-2.5333,112.95,72.01,89,59,2.19,ID,1691697839
415,sioux center,43.0797,-96.1756,83.01,71,100,1.99,US,1691697839
416,santa marta de ortigueira,43.6833,-7.85,69.8,82,91,3.22,ES,1691697839
417,namtsy,62.7161,129.6658,53.38,74,0,4.47,RU,1691697839
418,sola,-13.8833,167.55,74.05,68,100,28.66,VU,1691697840
419,mbaiki,3.8678,17.9892,70.9,98,47,2.3,CF,1691697840
420,bikenibeu village,1.3673,173.1241,84.16,79,40,1.14,KI,1691697840
421,bakchar,57.0186,82.0711,47.41,98,100,4.54,RU,1691697841
422,ladario,-19.0047,-57.6017,95.09,46,0,10.36,BR,1691697754
423,st. john's,47.5649,-52.7093,71.78,92,75,8.05,CA,1691697841
424,tarauaca,-8.1614,-70.7656,91.98,45,100,2.13,BR,1691697842
425,lamu,-2.2717,40.902,77.22,84,67,16.11,KE,1691697842
426,pangody,65.85,74.4859,44.22,80,1,19.24,RU,1691697843
427,daru,-9.0763,143.2092,74.71,76,96,17.18,PG,1691697843
428,coyhaique,-45.5752,-72.0662,49.95,57,75,5.75,CL,1691697844
429,acarau,-2.8856,-40.12,81.36,68,33,18.84,BR,1691697673
430,sebdou,34.637,-1.3314,79.9,28,0,4.41,DZ,1691697844
431,miranda,3.2499,-76.2281,89.73,41,71,2.46,CO,1691697845
432,alta,69.9689,23.2717,70.86,68,75,4.61,NO,1691697845
433,dudinka,69.4058,86.1778,54.63,56,70,24.54,RU,1691697845
434,kananga,-5.8958,22.4178,81.75,42,100,2.42,CD,1691697629
435,humberto de campos,-2.5983,-43.4611,83.64,65,17,9.44,BR,1691697846
436,la sarre,48.8002,-79.1996,68.88,60,53,7.31,CA,1691697742
437,okhotsk,59.3833,143.3,55.45,90,93,5.32,RU,1691697846
438,illizi,26.4833,8.4667,93.0,12,0,8.79,DZ,1691697847
439,nantucket,41.2835,-70.0995,78.85,69,0,12.66,US,1691697847
440,moroni,-11.7022,43.2551,74.32,76,1,11.79,KM,1691697848
441,sambava,-14.2667,50.1667,69.13,89,4,7.72,MG,1691697848
442,mount pearl,47.5166,-52.7813,70.95,91,75,8.05,CA,1691697848
443,polyarnyy,69.1989,33.4478,64.11,70,0,10.92,RU,1691697848
444,vizinga,61.0749,50.1031,63.23,74,15,1.34,RU,1691697849
445,el charco,2.4769,-78.1105,84.78,74,76,8.41,CO,1691697849
446,deming,32.2687,-107.7586,93.09,26,0,9.22,US,1691697850
447,meulaboh,4.1363,96.1285,76.51,91,91,3.74,ID,1691697850
448,zavodskoy,43.4597,132.2922,69.39,100,75,2.24,RU,1691697851
449,bontang,0.1333,117.5,77.16,87,100,9.53,ID,1691697851
450,bereket,39.2446,55.5154,91.26,21,0,8.81,TM,1691697851
451,tanhacu,-14.0214,-41.2481,82.62,28,63,8.19,BR,1691697851
452,irtyshsk,53.3333,75.4572,61.02,66,100,11.65,KZ,1691697852
453,midvagur,62.0511,-7.1939,54.43,87,100,14.97,FO,1691697852
454,cockburn town,21.4612,-71.1419,84.38,82,100,18.54,TC,1691697570
455,wanning,18.8003,110.3967,81.43,81,98,8.72,CN,1691697853
456,graham,47.0529,-122.2943,72.7,63,100,3.44,US,1691697661
457,point pleasant,40.0832,-74.0682,74.16,84,100,10.36,US,1691697841
458,barra de santo antonio,-9.4047,-35.5072,76.28,81,4,8.32,BR,1691697755
459,sucua,-2.4667,-78.1667,86.74,48,75,2.3,EC,1691697853
460,tambopata,-12.7333,-69.1833,93.09,52,40,4.61,PE,1691697854
461,onguday,50.75,86.15,60.51,69,94,3.51,RU,1691697854
462,dunedin,-45.8742,170.5036,36.81,77,100,1.99,NZ,1691697854
463,tobelo,1.7284,128.0095,77.77,84,97,7.52,ID,1691697854
464,chegdomyn,51.1167,133.0167,57.38,82,55,2.01,RU,1691697859
465,china,25.7,-99.2333,107.37,22,0,10.51,MX,1691697860
466,umm kaddadah,13.6017,26.6876,90.57,38,2,6.73,SD,1691697860
467,kenai,60.5544,-151.2583,59.09,94,100,6.91,US,1691697860
468,xicotencatl,23.0167,-98.8833,104.54,29,0,11.68,MX,1691697860
469,la tuque,47.4334,-72.7824,75.45,60,97,2.3,CA,1691697743
470,arica,-18.475,-70.3042,71.15,68,100,17.27,CL,1691697792
471,greenwood,34.1668,-82.1165,88.63,55,0,13.8,US,1691697861
472,lazaro cardenas,17.9583,-102.2,88.66,62,84,6.85,MX,1691697861
473,santo antonio,-6.3106,-35.4789,78.67,68,80,14.7,BR,1691697861
474,lospalos,-8.5186,127.0025,66.97,89,7,5.77,TL,1691697861
475,tynda,55.1667,124.7167,56.16,84,91,2.1,RU,1691697862
476,san patricio,28.017,-97.5169,102.92,41,0,17.98,US,1691697862
477,tuapse,44.1125,39.0742,76.53,92,15,1.63,RU,1691697862
478,oriximina,-1.7656,-55.8661,88.77,50,91,6.58,BR,1691697862
479,cudillero,43.5622,-6.1459,74.32,73,0,3.44,ES,1691697862
480,port isabel,26.0734,-97.2086,98.64,60,20,24.16,US,1691697863
481,burhanuddin,22.4918,90.7235,81.23,84,100,8.01,BD,1691697863
482,garbahaarrey,3.3289,42.2209,79.27,51,81,22.86,SO,1691697864
483,south gastonia,35.2193,-81.2056,89.78,74,40,4.61,US,1691697608
484,murzuq,25.9155,13.9184,87.24,23,0,9.64,LY,1691697864
485,dalandzadgad,43.5708,104.425,70.47,56,0,14.12,MN,1691697865
486,yuzhno-kurilsk,44.0306,145.8556,68.07,97,100,11.32,RU,1691697865
487,luderitz,-26.6481,15.1594,69.04,50,5,3.09,NA,1691697866
488,fort bragg,35.139,-79.006,91.81,61,40,12.66,US,1691697866
489,gao,16.6362,1.637,93.06,39,15,10.42,ML,1691697740
490,galle,6.0367,80.217,79.43,86,100,6.96,LK,1691697866
491,opuwo,-18.0607,13.84,66.54,32,0,6.69,NA,1691697866
492,kuta,-8.7233,115.1723,73.35,88,20,5.99,ID,1691697866
493,vila franca do campo,37.7167,-25.4333,75.61,88,39,0.74,PT,1691697867
494,gryazovets,58.88,40.2525,65.16,94,89,4.85,RU,1691697867
495,khandyga,62.6667,135.6,56.89,66,17,3.87,RU,1691697867
496,remire-montjoly,4.9167,-52.2667,87.84,66,44,12.66,GF,1691697868
497,waterford,42.7023,-83.4027,81.72,68,40,14.97,US,1691697868
498,channagiri,14.0333,75.9333,70.59,92,97,9.4,IN,1691697868
499,amahai,-3.3333,128.9167,74.44,88,84,4.65,ID,1691697868
500,san jose del guaviare,2.5729,-72.6459,78.55,89,100,3.58,CO,1691697869
501,mojo,8.6,39.1167,62.4,81,69,3.51,ET,1691697869
502,simanggang,1.2472,111.4528,75.18,100,98,0.0,MY,1691697869
503,piton saint-leu,-21.2196,55.3151,64.51,68,0,6.91,RE,1691697869
504,dolisie,-4.1997,12.6739,72.66,76,4,5.59,CG,1691697869
505,barranca,-10.75,-77.7667,69.04,73,18,13.31,PE,1691697869
506,hastings,50.8552,0.5729,70.9,30,34,4.54,GB,1691697870
507,okha,53.5739,142.9478,52.74,93,100,8.95,RU,1691697870
508,sao desiderio,-12.3633,-44.9733,90.7,21,99,6.33,BR,1691697870
509,gibraltar,36.1447,-5.3526,80.55,65,0,2.3,GI,1691697870
510,hasaki,35.7333,140.8333,81.3,88,10,10.47,JP,1691697870
511,magadan,59.5667,150.8,54.25,75,4,5.3,RU,1691697871
512,hammerfest,70.6634,23.6821,77.45,53,0,9.22,NO,1691697871
513,buulobarde,3.8538,45.5674,75.47,75,68,20.02,SO,1691697871
514,kapuskasing,49.4169,-82.4331,66.2,63,75,8.05,CA,1691697629
515,mersa matruh,31.3525,27.2453,80.8,65,0,9.22,EG,1691697871
516,weno,7.4515,151.8468,80.83,76,60,4.85,FM,1691697872
517,al qadarif,14.0349,35.3834,80.19,73,100,4.83,SD,1691697872
518,jitra,6.2681,100.4217,78.69,88,20,2.3,MY,1691697872
519,keflavik,64.0049,-22.5624,62.51,77,75,5.75,IS,1691697609
520,sinop,41.7711,34.8709,65.84,94,68,0.89,TR,1691697872
521,souillac,-20.5167,57.5167,70.18,83,40,1.14,MU,1691697872
522,nabire,-3.3667,135.4833,75.43,88,98,3.58,ID,1691697873
523,the pas,53.8251,-101.2541,62.62,59,40,12.66,CA,1691697873
524,obihiro,42.9172,143.2044,69.49,91,100,2.28,JP,1691697642
525,jiayuguan,39.8167,98.3,67.37,51,0,2.37,CN,1691697874
526,mumford,5.2618,-0.759,74.88,88,16,11.99,GH,1691697874
527,mahdishahr,35.7108,53.3556,72.86,28,0,4.92,IR,1691697874
528,pirapozinho,-22.2753,-51.5,92.68,22,0,8.05,BR,1691697874
529,yokadouma,3.5167,15.05,70.56,97,100,2.15,CM,1691697874
530,isfahan,32.6572,51.6776,78.44,17,0,5.32,IR,1691697619
531,choyr,46.3611,108.3611,62.28,80,11,7.87,MN,1691697875
532,ambon,-3.6954,128.1814,78.87,16,76,13.73,ID,1691697875
533,sal rei,16.1833,-22.9167,82.6,65,20,13.8,CV,1691697875
534,huntsville,34.7304,-86.5861,84.78,75,75,10.36,US,1691697875
535,grimstad,58.3405,8.5934,58.91,69,31,6.4,NO,1691697876
536,la paz,-16.5,-68.15,62.58,13,20,10.36,BO,1691697595
537,jurmala,56.968,23.7704,59.99,88,0,2.3,LV,1691697876
538,redencao,-4.2258,-38.7306,84.67,48,12,8.12,BR,1691697876
539,kununurra,-15.7667,128.7333,58.98,82,34,0.0,AU,1691697682
540,pontes e lacerda,-15.2261,-59.3353,100.33,17,0,9.08,BR,1691697807
541,pavlogradka,54.2024,73.5592,59.68,56,98,14.05,RU,1691697877
542,tangalle,6.024,80.7911,77.34,90,97,8.99,LK,1691697877
543,khombole,14.7667,-16.7,83.21,64,99,13.4,SN,1691697877
544,wladyslawowo,54.7909,18.4009,58.93,78,100,9.17,PL,1691697877
545,mar''ina horka,53.509,28.147,55.62,73,100,4.52,BY,1691697881
546,borba,-4.3878,-59.5939,92.62,43,87,4.43,BR,1691697881
547,zonguldak,41.25,31.8333,64.0,96,89,1.81,TR,1691697882
548,dawson creek,55.7666,-120.2362,65.84,52,40,17.27,CA,1691697618
549,sekondi-takoradi,4.934,-1.7137,75.15,85,99,9.13,GH,1691697882
550,abaza,52.655,90.0928,57.49,73,98,4.47,RU,1691697882
551,mary,37.0,62.5,84.94,21,0,8.48,TM,1691697883
552,saint-francois,46.4154,3.9054,76.44,53,0,2.3,FR,1691697883
553,port saint john's,-31.6229,29.5448,63.57,86,9,14.34,ZA,1691697883
554,kavaratti,10.5669,72.642,82.54,77,100,16.8,IN,1691697883
555,deqen,29.9618,90.7188,56.57,78,100,1.01,CN,1691697883
556,evinayong,1.4368,10.5512,68.11,98,98,1.81,GQ,1691697883
557,san martin,-33.081,-68.4681,68.54,21,0,10.36,AR,1691697884
558,sarigol,38.2395,28.6966,73.85,66,0,5.7,TR,1691697884
559,ga-kgapane,-23.6333,30.2167,59.25,51,47,1.97,ZA,1691697884
560,natal,-5.795,-35.2094,83.05,78,40,17.27,BR,1691697676
561,mega,4.05,38.3,62.92,60,18,9.22,ET,1691697884
562,ko lanta,7.5336,99.0865,82.02,77,63,8.77,TH,1691697884
563,whistler,50.1164,-122.9695,60.19,90,99,4.85,CA,1691697885
564,uyovu,-3.2833,31.5258,76.82,41,100,2.75,TZ,1691697885
565,puerto real,36.5282,-6.1901,91.62,65,0,8.05,ES,1691697885
566,magong,23.5654,119.5863,82.26,85,100,11.61,TW,1691697885
567,vytegra,61.0064,36.4481,61.54,79,12,1.54,RU,1691697885
568,luanda,-8.8368,13.2343,71.6,73,0,8.05,AO,1691697785
569,ocean shores,46.9737,-124.1563,72.45,82,7,7.96,US,1691697635
570,khash,28.2211,61.2158,81.12,17,0,3.67,IR,1691697887
571,maputo,-25.9653,32.5892,65.88,72,20,9.22,MZ,1691697887
572,anyksciai,55.5256,25.1026,56.97,75,100,6.42,LT,1691697887
573,lata,40.1629,-8.3327,73.92,78,0,3.85,PT,1691697887
574,las tablas,7.7667,-80.2833,87.22,67,77,5.82,PA,1691697888
575,kharp,66.8014,65.8081,47.73,89,9,4.52,RU,1691697888
576,hanceville,34.0607,-86.7675,88.9,66,79,7.0,US,1691697888
577,lira,2.235,32.9097,65.71,94,75,0.98,UG,1691697888
578,homestead meadows south,31.811,-106.1643,98.11,22,25,10.0,US,1691697888
579,mailsi,29.8003,72.1758,95.88,35,14,14.5,PK,1691697888
580,palmas,-10.2128,-48.3603,93.07,33,0,6.91,BR,1691697889
581,guozhen,34.3659,107.359,76.98,90,98,1.77,CN,1691697889
582,holbrook,40.8123,-73.0784,76.17,90,100,13.8,US,1691697889
